[{"name": "Weeks Bay, Mobile Bay", "lat": "30.4167", "id": 8732828, "lon": "-87.8250"}, {"name": "Dauphin Island", "lat": "30.2500", "id": 8735180, "lon": "-88.0750"}, {"name": "Dog River Bridge", "lat": "30.5652", "id": 8735391, "lon": "-88.0880"}, {"name": "East Fowl River Bridge", "lat": "30.4437", "id": 8735523, "lon": "-88.1139"}, {"name": "Coast Guard Sector Mobile", "lat": "30.6483", "id": 8736897, "lon": "-88.0583"}, {"name": "Mobile State Docks", "lat": "30.7083", "id": 8737048, "lon": "-88.0433"}, {"name": "Chickasaw Creek", "lat": "30.7819", "id": 8737138, "lon": "-88.0736"}, {"name": "West Fowl River Bridge", "lat": "30.3766", "id": 8738043, "lon": "-88.1586"}, {"name": "Bayou La Batre Bridge", "lat": "30.4057", "id": 8739803, "lon": "-88.2477"}, {"name": "Ketchikan", "lat": "55.3318", "id": 9450460, "lon": "-131.6262"}, {"name": "Port Alexander", "lat": "56.2467", "id": 9451054, "lon": "-134.6470"}, {"name": "Sitka", "lat": "57.0517", "id": 9451600, "lon": "-135.3420"}, {"name": "Juneau", "lat": "58.2983", "id": 9452210, "lon": "-134.4120"}, {"name": "Skagway", "lat": "59.4500", "id": 9452400, "lon": "-135.3270"}, {"name": "Elfin Cove", "lat": "58.1947", "id": 9452634, "lon": "-136.3469"}, {"name": "Yakutat, Yakutat Bay", "lat": "59.5485", "id": 9453220, "lon": "-139.7334"}, {"name": "Cordova", "lat": "60.5583", "id": 9454050, "lon": "-145.7530"}, {"name": "Valdez", "lat": "61.1250", "id": 9454240, "lon": "-146.3620"}, {"name": "Seward", "lat": "60.1200", "id": 9455090, "lon": "-149.4267"}, {"name": "Seldovia", "lat": "59.4405", "id": 9455500, "lon": "-151.7199"}, {"name": "Nikiski", "lat": "60.6833", "id": 9455760, "lon": "-151.3980"}, {"name": "Anchorage", "lat": "61.2383", "id": 9455920, "lon": "-149.8900"}, {"name": "Kodiak Island", "lat": "57.7317", "id": 9457292, "lon": "-152.5120"}, {"name": "Alitak", "lat": "56.8983", "id": 9457804, "lon": "-154.2470"}, {"name": "Sand Point", "lat": "55.3367", "id": 9459450, "lon": "-160.5020"}, {"name": "King Cove", "lat": "55.0617", "id": 9459881, "lon": "-162.3270"}, {"name": "Adak Island", "lat": "51.8633", "id": 9461380, "lon": "-176.6320"}, {"name": "Atka", "lat": "52.2317", "id": 9461710, "lon": "-174.1730"}, {"name": "Nikolski", "lat": "52.9406", "id": 9462450, "lon": "-168.8713"}, {"name": "Unalaska", "lat": "53.8800", "id": 9462620, "lon": "-166.5370"}, {"name": "Port Moller", "lat": "55.9900", "id": 9463502, "lon": "-160.5620"}, {"name": "Village Cove, St Paul Island", "lat": "57.1253", "id": 9464212, "lon": "-170.2852"}, {"name": "Nome, Norton Sound", "lat": "64.5000", "id": 9468756, "lon": "-165.4300"}, {"name": "Bermuda, St. Georges Island", "lat": "32.3734", "id": 2695540, "lon": "-64.7033"}, {"name": "San Diego", "lat": "32.7142", "id": 9410170, "lon": "-117.1736"}, {"name": "La Jolla", "lat": "32.8667", "id": 9410230, "lon": "-117.2580"}, {"name": "Los Angeles", "lat": "33.7200", "id": 9410660, "lon": "-118.2720"}, {"name": "Santa Monica", "lat": "34.0083", "id": 9410840, "lon": "-118.5000"}, {"name": "Santa Barbara", "lat": "34.4083", "id": 9411340, "lon": "-119.6850"}, {"name": "Oil Platform Harvest", "lat": "34.4683", "id": 9411406, "lon": "-120.6730"}, {"name": "Port San Luis", "lat": "35.1767", "id": 9412110, "lon": "-120.7600"}, {"name": "Monterey", "lat": "36.6050", "id": 9413450, "lon": "-121.8880"}, {"name": "San Francisco", "lat": "37.8067", "id": 9414290, "lon": "-122.4650"}, {"name": "Redwood City", "lat": "37.5067", "id": 9414523, "lon": "-122.2100"}, {"name": "Coyote Creek", "lat": "37.4650", "id": 9414575, "lon": "-122.0230"}, {"name": "Alameda", "lat": "37.7717", "id": 9414750, "lon": "-122.2983"}, {"name": "Richmond", "lat": "37.9283", "id": 9414863, "lon": "-122.4000"}, {"name": "Point Reyes", "lat": "37.9961", "id": 9415020, "lon": "-122.9767"}, {"name": "Martinez-Amorco Pier", "lat": "38.0346", "id": 9415102, "lon": "-122.1252"}, {"name": "Port Chicago", "lat": "38.0560", "id": 9415144, "lon": "-122.0395"}, {"name": "Arena Cove", "lat": "38.9133", "id": 9416841, "lon": "-123.7080"}, {"name": "North Spit", "lat": "40.7667", "id": 9418767, "lon": "-124.2170"}, {"name": "Crescent City", "lat": "41.7450", "id": 9419750, "lon": "-124.1830"}, {"name": "Christiansted Harbor, St Croix", "lat": "17.7500", "id": 9751364, "lon": "-64.7050"}, {"name": "Lameshur Bay, St John", "lat": "18.3182", "id": 9751381, "lon": "-64.7242"}, {"name": "Lime Tree Bay. St. Croix", "lat": "17.6947", "id": 9751401, "lon": "-64.7538"}, {"name": "Charlotte Amalie", "lat": "18.3358", "id": 9751639, "lon": "-64.9200"}, {"name": "Culebra", "lat": "18.3009", "id": 9752235, "lon": "-65.3025"}, {"name": "Isabel Segunda, Vieques Island", "lat": "18.1525", "id": 9752619, "lon": "-65.4438"}, {"name": "Esperanza, Vieques Island", "lat": "18.0939", "id": 9752695, "lon": "-65.4714"}, {"name": "Fajardo", "lat": "18.3352", "id": 9753216, "lon": "-65.6311"}, {"name": "Yabucoa Harbor", "lat": "18.0551", "id": 9754228, "lon": "-65.8330"}, {"name": "San Juan, La Puntilla, San Juan Bay", "lat": "18.4589", "id": 9755371, "lon": "-66.1164"}, {"name": "Arecibo", "lat": "18.4805", "id": 9757809, "lon": "-66.7024"}, {"name": "Magueyes Island", "lat": "17.9701", "id": 9759110, "lon": "-67.0464"}, {"name": "Mayaguez", "lat": "18.2176", "id": 9759394, "lon": "-67.1588"}, {"name": "Mona Island", "lat": "18.0899", "id": 9759938, "lon": "-67.9385"}, {"name": "Barbuda", "lat": "17.5907", "id": 9761115, "lon": "-61.8206"}, {"name": "New London", "lat": "41.3614", "id": 8461490, "lon": "-72.0900"}, {"name": "New Haven", "lat": "41.2833", "id": 8465705, "lon": "-72.9083"}, {"name": "Bridgeport", "lat": "41.1733", "id": 8467150, "lon": "-73.1817"}, {"name": "Delaware City", "lat": "39.5817", "id": 8551762, "lon": "-75.5883"}, {"name": "Reedy Point", "lat": "39.5583", "id": 8551910, "lon": "-75.5733"}, {"name": "Brandywine Shoal Light", "lat": "38.9867", "id": 8555889, "lon": "-75.1133"}, {"name": "Lewes", "lat": "38.7817", "id": 8557380, "lon": "-75.1200"}, {"name": "Fernandina Beach", "lat": "30.6717", "id": 8720030, "lon": "-81.4650"}, {"name": "Mayport (Bar Pilots Dock)", "lat": "30.3967", "id": 8720218, "lon": "-81.4300"}, {"name": "Dames Point", "lat": "30.3867", "id": 8720219, "lon": "-81.5583"}, {"name": "Southbank Riverwalk, St Johns River", "lat": "30.3200", "id": 8720226, "lon": "-81.6583"}, {"name": "I-295 Bridge, St Johns River", "lat": "30.1917", "id": 8720357, "lon": "-81.6917"}, {"name": "Red Bay Point, St Johns River", "lat": "29.9783", "id": 8720503, "lon": "-81.6283"}, {"name": "Racy Point, St Johns River", "lat": "29.8017", "id": 8720625, "lon": "-81.5483"}, {"name": "Trident Pier", "lat": "28.4158", "id": 8721604, "lon": "-80.5931"}, {"name": "Lake Worth Pier", "lat": "26.6117", "id": 8722670, "lon": "-80.0333"}, {"name": "Virginia Key", "lat": "25.7314", "id": 8723214, "lon": "-80.1618"}, {"name": "Vaca Key", "lat": "24.7117", "id": 8723970, "lon": "-81.1050"}, {"name": "Key West", "lat": "24.5557", "id": 8724580, "lon": "-81.8079"}, {"name": "Naples", "lat": "26.1317", "id": 8725110, "lon": "-81.8075"}, {"name": "Fort Myers", "lat": "26.6477", "id": 8725520, "lon": "-81.8712"}, {"name": "Port Manatee", "lat": "27.6387", "id": 8726384, "lon": "-82.5621"}, {"name": "St Petersburg, Tampa Bay", "lat": "27.7606", "id": 8726520, "lon": "-82.6269"}, {"name": "Old Port Tampa", "lat": "27.8578", "id": 8726607, "lon": "-82.5527"}, {"name": "Mckay Bay Entrance", "lat": "27.9133", "id": 8726667, "lon": "-82.4250"}, {"name": "Clearwater Beach", "lat": "27.9783", "id": 8726724, "lon": "-82.8317"}, {"name": "Cedar Key", "lat": "29.1350", "id": 8727520, "lon": "-83.0317"}, {"name": "Apalachicola", "lat": "29.7267", "id": 8728690, "lon": "-84.9817"}, {"name": "Panama City", "lat": "30.1523", "id": 8729108, "lon": "-85.6669"}, {"name": "Panama City Beach", "lat": "30.2133", "id": 8729210, "lon": "-85.8783"}, {"name": "Pensacola", "lat": "30.4044", "id": 8729840, "lon": "-87.2112"}, {"name": "Fort Pulaski", "lat": "32.0333", "id": 8670870, "lon": "-80.9017"}, {"name": "Nawiliwili", "lat": "21.9544", "id": 1611400, "lon": "-159.3561"}, {"name": "Honolulu", "lat": "21.3067", "id": 1612340, "lon": "-157.8670"}, {"name": "Mokuoloe", "lat": "21.4331", "id": 1612480, "lon": "-157.7900"}, {"name": "Kahului, Kahului Harbor", "lat": "20.8950", "id": 1615680, "lon": "-156.4767"}, {"name": "Kawaihae", "lat": "20.0366", "id": 1617433, "lon": "-155.8294"}, {"name": "Hilo, Hilo Bay, Kuhio Bay", "lat": "19.7303", "id": 1617760, "lon": "-155.0558"}, {"name": "Pilottown", "lat": "29.1783", "id": 8760721, "lon": "-89.2583"}, {"name": "Pilots Station East, SW Pass", "lat": "28.9322", "id": 8760922, "lon": "-89.4075"}, {"name": "Shell Beach", "lat": "29.8681", "id": 8761305, "lon": "-89.6732"}, {"name": "Grand Isle", "lat": "29.2633", "id": 8761724, "lon": "-89.9567"}, {"name": "New Canal Station", "lat": "30.0272", "id": 8761927, "lon": "-90.1134"}, {"name": "Port Fourchon, Belle Pass", "lat": "29.1142", "id": 8762075, "lon": "-90.1992"}, {"name": "I-10 Bonnet Carre Floodway", "lat": "30.0679", "id": 8762483, "lon": "-90.3900"}, {"name": "Berwick, Atchafalaya River", "lat": "29.6675", "id": 8764044, "lon": "-91.2376"}, {"name": "LAWMA, Amerada Pass", "lat": "29.4496", "id": 8764227, "lon": "-91.3381"}, {"name": "Eugene Island, North of", "lat": "29.3675", "id": 8764314, "lon": "-91.3839"}, {"name": "Freshwater Canal Locks", "lat": "29.5517", "id": 8766072, "lon": "-92.3052"}, {"name": "Lake Charles", "lat": "30.2236", "id": 8767816, "lon": "-93.2217"}, {"name": "Bulk Terminal", "lat": "30.1903", "id": 8767961, "lon": "-93.3007"}, {"name": "Calcasieu Pass", "lat": "29.7682", "id": 8768094, "lon": "-93.3429"}, {"name": "Eastport", "lat": "44.9046", "id": 8410140, "lon": "-66.9829"}, {"name": "Cutler Farris Wharf", "lat": "44.6567", "id": 8411060, "lon": "-67.2100"}, {"name": "Bar Harbor", "lat": "44.3917", "id": 8413320, "lon": "-68.2050"}, {"name": "Portland", "lat": "43.6567", "id": 8418150, "lon": "-70.2467"}, {"name": "Wells", "lat": "43.3200", "id": 8419317, "lon": "-70.5633"}, {"name": "Ocean City Inlet", "lat": "38.3283", "id": 8570283, "lon": "-75.0917"}, {"name": "Bishops Head", "lat": "38.2200", "id": 8571421, "lon": "-76.0383"}, {"name": "Cambridge", "lat": "38.5733", "id": 8571892, "lon": "-76.0683"}, {"name": "Tolchester Beach", "lat": "39.2133", "id": 8573364, "lon": "-76.2450"}, {"name": "Chesapeake City", "lat": "39.5267", "id": 8573927, "lon": "-75.8100"}, {"name": "Baltimore", "lat": "39.2667", "id": 8574680, "lon": "-76.5783"}, {"name": "Annapolis", "lat": "38.9833", "id": 8575512, "lon": "-76.4816"}, {"name": "Solomons Island", "lat": "38.3167", "id": 8577330, "lon": "-76.4517"}, {"name": "Boston", "lat": "42.3548", "id": 8443970, "lon": "-71.0534"}, {"name": "Fall River", "lat": "41.7043", "id": 8447386, "lon": "-71.1641"}, {"name": "Chatham", "lat": "41.6885", "id": 8447435, "lon": "-69.9511"}, {"name": "Woods Hole", "lat": "41.5233", "id": 8447930, "lon": "-70.6717"}, {"name": "Nantucket Island", "lat": "41.2850", "id": 8449130, "lon": "-70.0967"}, {"name": "Dock E, Port of Pascagoula", "lat": "30.3477", "id": 8741041, "lon": "-88.5054"}, {"name": "Pascagoula NOAA Lab", "lat": "30.3679", "id": 8741533, "lon": "-88.5630"}, {"name": "Bay Waveland Yacht Club", "lat": "30.3264", "id": 8747437, "lon": "-89.3258"}, {"name": "Sandy Hook", "lat": "40.4669", "id": 8531680, "lon": "-74.0094"}, {"name": "Cape May", "lat": "38.9683", "id": 8536110, "lon": "-74.9600"}, {"name": "Ship John Shoal", "lat": "39.3050", "id": 8537121, "lon": "-75.3750"}, {"name": "Burlington, Delaware River", "lat": "40.0817", "id": 8539094, "lon": "-74.8697"}, {"name": "Montauk", "lat": "41.0483", "id": 8510560, "lon": "-71.9600"}, {"name": "Kings Point", "lat": "40.8103", "id": 8516945, "lon": "-73.7649"}, {"name": "The Battery", "lat": "40.7006", "id": 8518750, "lon": "-74.0142"}, {"name": "Bergen Point West Reach", "lat": "40.6367", "id": 8519483, "lon": "-74.1417"}, {"name": "Duck", "lat": "36.1833", "id": 8651370, "lon": "-75.7467"}, {"name": "Oregon Inlet Marina", "lat": "35.7950", "id": 8652587, "lon": "-75.5483"}, {"name": "USCG Station Hatteras", "lat": "35.2086", "id": 8654467, "lon": "-75.7042"}, {"name": "Beaufort", "lat": "34.7200", "id": 8656483, "lon": "-76.6700"}, {"name": "Wilmington", "lat": "34.2267", "id": 8658120, "lon": "-77.9533"}, {"name": "Wrightsville Beach", "lat": "34.2133", "id": 8658163, "lon": "-77.7867"}, {"name": "Port Orford", "lat": "42.7390", "id": 9431647, "lon": "-124.4983"}, {"name": "Charleston", "lat": "43.3450", "id": 9432780, "lon": "-124.3220"}, {"name": "South Beach", "lat": "44.6250", "id": 9435380, "lon": "-124.0430"}, {"name": "Garibaldi", "lat": "45.5545", "id": 9437540, "lon": "-123.9189"}, {"name": "Astoria", "lat": "46.2073", "id": 9439040, "lon": "-123.7683"}, {"name": "Wauna", "lat": "46.1600", "id": 9439099, "lon": "-123.4050"}, {"name": "St Helens", "lat": "45.8650", "id": 9439201, "lon": "-122.7970"}, {"name": "Sand Island, Midway Islands", "lat": "28.2117", "id": 1619910, "lon": "-177.3600"}, {"name": "Apra Harbor, Guam", "lat": "13.4387", "id": 1630000, "lon": "144.6539"}, {"name": "Pago Bay, Guam", "lat": "13.4283", "id": 1631428, "lon": "144.7970"}, {"name": "Pago Pago, American Samoa", "lat": "-14.2800", "id": 1770000, "lon": "-170.6900"}, {"name": "Kwajalein, Marshall Islands", "lat": "8.7316", "id": 1820000, "lon": "167.7362"}, {"name": "Wake Island, Pacific Ocean", "lat": "19.2900", "id": 1890000, "lon": "166.6180"}, {"name": "Philadelphia", "lat": "39.9333", "id": 8545240, "lon": "-75.1417"}, {"name": "Bridesburg", "lat": "39.9833", "id": 8546252, "lon": "-75.0750"}, {"name": "Newbold", "lat": "40.1367", "id": 8548989, "lon": "-74.7517"}, {"name": "Newport", "lat": "41.5050", "id": 8452660, "lon": "-71.3267"}, {"name": "Conimicut Light", "lat": "41.7167", "id": 8452944, "lon": "-71.3433"}, {"name": "Providence", "lat": "41.8071", "id": 8454000, "lon": "-71.4012"}, {"name": "Quonset Point", "lat": "41.5868", "id": 8454049, "lon": "-71.4110"}, {"name": "Springmaid Pier", "lat": "33.6550", "id": 8661070, "lon": "-78.9183"}, {"name": "Oyster Landing (N Inlet Estuary)", "lat": "33.3517", "id": 8662245, "lon": "-79.1867"}, {"name": "Charleston", "lat": "32.7817", "id": 8665530, "lon": "-79.9250"}, {"name": "Port Arthur (TCOON)", "lat": "29.8667", "id": 8770475, "lon": "-93.9300"}, {"name": "Rainbow Bridge (TCOON)", "lat": "29.9800", "id": 8770520, "lon": "-93.8817"}, {"name": "Sabine Pass North", "lat": "29.7284", "id": 8770570, "lon": "-93.8701"}, {"name": "Morgans Point", "lat": "29.6817", "id": 8770613, "lon": "-94.9850"}, {"name": "Eagle Point", "lat": "29.4800", "id": 8771013, "lon": "-94.9183"}, {"name": "Galveston Bay Entrance, North Jetty", "lat": "29.3573", "id": 8771341, "lon": "-94.7248"}, {"name": "Galveston Pier 21", "lat": "29.3100", "id": 8771450, "lon": "-94.7933"}, {"name": "Freeport", "lat": "28.9357", "id": 8772447, "lon": "-95.2942"}, {"name": "Port Lavaca (TCOON)", "lat": "28.6400", "id": 8773259, "lon": "-96.5950"}, {"name": "Port O'Connor (TCOON)", "lat": "28.4517", "id": 8773701, "lon": "-96.3883"}, {"name": "Aransas Wildlife Refuge (TCOON)", "lat": "28.2283", "id": 8774230, "lon": "-96.7950"}, {"name": "Rockport", "lat": "28.0217", "id": 8774770, "lon": "-97.0467"}, {"name": "Port Aransas (TCOON)", "lat": "27.8383", "id": 8775237, "lon": "-97.0733"}, {"name": "USS Lexington", "lat": "27.8117", "id": 8775296, "lon": "-97.3900"}, {"name": "Packery Channel (TCOON)", "lat": "27.6333", "id": 8775792, "lon": "-97.2367"}, {"name": "Bob Hall Pier, Corpus Christi", "lat": "27.5800", "id": 8775870, "lon": "-97.2167"}, {"name": "South Padre Island CG Station (TCOON)", "lat": "26.0767", "id": 8779748, "lon": "-97.1767"}, {"name": "Port Isabel", "lat": "26.0600", "id": 8779770, "lon": "-97.2150"}, {"name": "Wachapreague", "lat": "37.6078", "id": 8631044, "lon": "-75.6858"}, {"name": "Kiptopeke", "lat": "37.1652", "id": 8632200, "lon": "-75.9884"}, {"name": "Dahlgren", "lat": "38.3200", "id": 8635027, "lon": "-77.0367"}, {"name": "Lewisetta", "lat": "37.9961", "id": 8635750, "lon": "-76.4644"}, {"name": "Yorktown USCG Training Center", "lat": "37.2267", "id": 8637689, "lon": "-76.4783"}, {"name": "Sewells Point", "lat": "36.9467", "id": 8638610, "lon": "-76.3300"}, {"name": "Chesapeake Bay Bridge Tunnel", "lat": "36.9667", "id": 8638863, "lon": "-76.1133"}, {"name": "Money Point", "lat": "36.7783", "id": 8639348, "lon": "-76.3017"}, {"name": "Vancouver", "lat": "45.6317", "id": 9440083, "lon": "-122.6970"}, {"name": "Longview", "lat": "46.1061", "id": 9440422, "lon": "-122.9542"}, {"name": "Skamokawa", "lat": "46.2667", "id": 9440569, "lon": "-123.4520"}, {"name": "Cape Disappointment", "lat": "46.3000", "id": 9440581, "lon": "-124.0000"}, {"name": "Toke Point", "lat": "46.7075", "id": 9440910, "lon": "-123.9669"}, {"name": "Westport", "lat": "46.9043", "id": 9441102, "lon": "-124.1051"}, {"name": "La Push", "lat": "47.9133", "id": 9442396, "lon": "-124.6370"}, {"name": "Neah Bay", "lat": "48.3667", "id": 9443090, "lon": "-124.6117"}, {"name": "Port Angeles", "lat": "48.1250", "id": 9444090, "lon": "-123.4400"}, {"name": "Port Townsend", "lat": "48.1117", "id": 9444900, "lon": "-122.7580"}, {"name": "Tacoma", "lat": "47.2667", "id": 9446484, "lon": "-122.4133"}, {"name": "Seattle", "lat": "47.6026", "id": 9447130, "lon": "-122.3393"}, {"name": "Cherry Point", "lat": "48.8633", "id": 9449424, "lon": "-122.7580"}, {"name": "Friday Harbor", "lat": "48.5467", "id": 9449880, "lon": "-123.0100"}]